{
"type": "FeatureCollection",
"name": "japan_cities_points",
"crs": { "type": "name", "properties": { "name": "urn:ogc:def:crs:OGC:1.3:CRS84" } },
"features": [
{ "type": "Feature", "properties": { "name": "Tokyo", "country.etc": "Japan", "pop": 8372440, "lat": 35.67, "long": 139.77, "capital": 1 }, "geometry": { "type": "Point", "coordinates": [ 139.77, 35.67 ] } },
{ "type": "Feature", "properties": { "name": "Yokohama", "country.etc": "Japan", "pop": 3603710, "lat": 35.47, "long": 139.62, "capital": 0 }, "geometry": { "type": "Point", "coordinates": [ 139.62, 35.47 ] } },
{ "type": "Feature", "properties": { "name": "Osaka", "country.etc": "Japan", "pop": 2590815, "lat": 34.68, "long": 135.5, "capital": 0 }, "geometry": { "type": "Point", "coordinates": [ 135.5, 34.68 ] } },
{ "type": "Feature", "properties": { "name": "Nagoya", "country.etc": "Japan", "pop": 2194748, "lat": 35.15, "long": 136.91, "capital": 0 }, "geometry": { "type": "Point", "coordinates": [ 136.91, 35.15 ] } },
{ "type": "Feature", "properties": { "name": "Sapporo", "country.etc": "Japan", "pop": 1895505, "lat": 43.06, "long": 141.34, "capital": 0 }, "geometry": { "type": "Point", "coordinates": [ 141.34, 43.06 ] } },
{ "type": "Feature", "properties": { "name": "Kobe", "country.etc": "Japan", "pop": 1535384, "lat": 34.68, "long": 135.17, "capital": 0 }, "geometry": { "type": "Point", "coordinates": [ 135.17, 34.68 ] } },
{ "type": "Feature", "properties": { "name": "Kyoto", "country.etc": "Japan", "pop": 1458183, "lat": 35.01, "long": 135.75, "capital": 0 }, "geometry": { "type": "Point", "coordinates": [ 135.75, 35.01 ] } },
{ "type": "Feature", "properties": { "name": "Fukuoka", "country.etc": "Japan", "pop": 1402674, "lat": 33.59, "long": 130.41, "capital": 0 }, "geometry": { "type": "Point", "coordinates": [ 130.41, 33.59 ] } },
{ "type": "Feature", "properties": { "name": "Kawasaki", "country.etc": "Japan", "pop": 1318034, "lat": 35.53, "long": 139.7, "capital": 0 }, "geometry": { "type": "Point", "coordinates": [ 139.7, 35.53 ] } },
{ "type": "Feature", "properties": { "name": "Hiroshima", "country.etc": "Japan", "pop": 1147357, "lat": 34.39, "long": 132.44, "capital": 0 }, "geometry": { "type": "Point", "coordinates": [ 132.44, 34.39 ] } },
{ "type": "Feature", "properties": { "name": "Saitama", "country.etc": "Japan", "pop": 1088954, "lat": 35.87, "long": 139.64, "capital": 0 }, "geometry": { "type": "Point", "coordinates": [ 139.64, 35.87 ] } },
{ "type": "Feature", "properties": { "name": "Sendai", "country.etc": "Japan", "pop": 1043834, "lat": 38.26, "long": 140.89, "capital": 0 }, "geometry": { "type": "Point", "coordinates": [ 140.89, 38.26 ] } },
{ "type": "Feature", "properties": { "name": "Kitakyushu", "country.etc": "Japan", "pop": 994767, "lat": 33.88, "long": 130.86, "capital": 0 }, "geometry": { "type": "Point", "coordinates": [ 130.86, 33.88 ] } },
{ "type": "Feature", "properties": { "name": "Chiba", "country.etc": "Japan", "pop": 926276, "lat": 35.61, "long": 140.11, "capital": 0 }, "geometry": { "type": "Point", "coordinates": [ 140.11, 35.61 ] } },
{ "type": "Feature", "properties": { "name": "Sakai", "country.etc": "Japan", "pop": 780367, "lat": 34.57, "long": 135.48, "capital": 0 }, "geometry": { "type": "Point", "coordinates": [ 135.48, 34.57 ] } },
{ "type": "Feature", "properties": { "name": "Shizuoka", "country.etc": "Japan", "pop": 700506, "lat": 34.98, "long": 138.39, "capital": 0 }, "geometry": { "type": "Point", "coordinates": [ 138.39, 34.98 ] } },
{ "type": "Feature", "properties": { "name": "Kumamoto", "country.etc": "Japan", "pop": 684505, "lat": 32.8, "long": 130.71, "capital": 0 }, "geometry": { "type": "Point", "coordinates": [ 130.71, 32.8 ] } },
{ "type": "Feature", "properties": { "name": "Sagamihara", "country.etc": "Japan", "pop": 657699, "lat": 35.58, "long": 139.38, "capital": 0 }, "geometry": { "type": "Point", "coordinates": [ 139.38, 35.58 ] } },
{ "type": "Feature", "properties": { "name": "Okayama", "country.etc": "Japan", "pop": 642279, "lat": 34.67, "long": 133.92, "capital": 0 }, "geometry": { "type": "Point", "coordinates": [ 133.92, 34.67 ] } },
{ "type": "Feature", "properties": { "name": "Hamamatsu", "country.etc": "Japan", "pop": 609786, "lat": 34.72, "long": 137.73, "capital": 0 }, "geometry": { "type": "Point", "coordinates": [ 137.73, 34.72 ] } },
{ "type": "Feature", "properties": { "name": "Hachioji", "country.etc": "Japan", "pop": 588315, "lat": 35.66, "long": 139.33, "capital": 0 }, "geometry": { "type": "Point", "coordinates": [ 139.33, 35.66 ] } },
{ "type": "Feature", "properties": { "name": "Funabashi", "country.etc": "Japan", "pop": 562813, "lat": 35.7, "long": 139.99, "capital": 0 }, "geometry": { "type": "Point", "coordinates": [ 139.99, 35.7 ] } },
{ "type": "Feature", "properties": { "name": "Kagoshima", "country.etc": "Japan", "pop": 556069, "lat": 31.59, "long": 130.56, "capital": 0 }, "geometry": { "type": "Point", "coordinates": [ 130.56, 31.59 ] } },
{ "type": "Feature", "properties": { "name": "Higashiosaka", "country.etc": "Japan", "pop": 512691, "lat": 34.67, "long": 135.59, "capital": 0 }, "geometry": { "type": "Point", "coordinates": [ 135.59, 34.67 ] } },
{ "type": "Feature", "properties": { "name": "Niigata", "country.etc": "Japan", "pop": 506099, "lat": 37.92, "long": 139.04, "capital": 0 }, "geometry": { "type": "Point", "coordinates": [ 139.04, 37.92 ] } },
{ "type": "Feature", "properties": { "name": "Matsuyama", "country.etc": "Japan", "pop": 487890, "lat": 33.84, "long": 132.77, "capital": 0 }, "geometry": { "type": "Point", "coordinates": [ 132.77, 33.84 ] } },
{ "type": "Feature", "properties": { "name": "Himeji", "country.etc": "Japan", "pop": 482338, "lat": 34.83, "long": 134.69, "capital": 0 }, "geometry": { "type": "Point", "coordinates": [ 134.69, 34.83 ] } },
{ "type": "Feature", "properties": { "name": "Nishinomiya", "country.etc": "Japan", "pop": 475010, "lat": 34.73, "long": 135.34, "capital": 0 }, "geometry": { "type": "Point", "coordinates": [ 135.34, 34.73 ] } },
{ "type": "Feature", "properties": { "name": "Matsudo", "country.etc": "Japan", "pop": 471305, "lat": 35.78, "long": 139.9, "capital": 0 }, "geometry": { "type": "Point", "coordinates": [ 139.9, 35.78 ] } },
{ "type": "Feature", "properties": { "name": "Kawaguchi", "country.etc": "Japan", "pop": 470332, "lat": 35.81, "long": 139.73, "capital": 0 }, "geometry": { "type": "Point", "coordinates": [ 139.73, 35.81 ] } }
]
}
